[
{
"title": "Flight of Fancy",
"guid": "45869ddc306e490cab1beda474ac6003.16",
"latlng": "47.617603,-122.355512"
},
{
"title": "Dot Matrix Screen",
"guid": "29b20ee58cf241f0b51244cad3545de7.16",
"latlng": "47.619153,-122.355603"
},
{
"title": "The Cat's Meow",
"guid": "9645c4401a0e4bd19fc53fe9335fb591.16",
"latlng": "47.618073,-122.355567"
},
{
"title": "Welcome to Belltown",
"guid": "d3152cb7ef9f486ea53f223611ebab05.11",
"latlng": "47.617821,-122.351901"
},
{
"title": "The Pittsburgh Gates",
"guid": "f26772df8ee245869c8e92cdbcb97716.16",
"latlng": "47.619441,-122.354305"
},
{
"title": "Cedar Bear",
"guid": "a1474e94b3f34100bf817ed56cca6a64.16",
"latlng": "47.618429,-122.347366"
},
{
"title": "Flying 'Hedrons",
"guid": "de204f93d82f4f96b9c026eef693151a.16",
"latlng": "47.619558,-122.346748"
},
{
"title": "The Orca Pod",
"guid": "d209143f4c564c11ba6811e1e494ee3b.16",
"latlng": "47.619524,-122.351721"
},
{
"title": "4th and Cedar Electrical Box",
"guid": "0858a40e0a93409bae4254decd993610.16",
"latlng": "47.617947,-122.348011"
},
{
"title": "KOMO Plaza",
"guid": "33d34d5a3d0f4036ab6b57506e0fce8a.16",
"latlng": "47.618737,-122.347926"
},
{
"title": "Something Spawning This Way Comes",
"guid": "e52cc9b0966546e88a4f96ba14b59c88.16",
"latlng": "47.618517,-122.352183"
},
{
"title": "Cupcake Bus Mural ",
"guid": "e004d589c1f0459a9b89a1dea77a3a8d.16",
"latlng": "47.619212,-122.347777"
},
{
"title": "Lighthouse",
"guid": "e1ad711fad72494ab19426a78feb0dc1.11",
"latlng": "47.618357,-122.354032"
},
{
"title": "Pacific Science Center Plaque",
"guid": "6a7ba8cad4ad46d9b41a9b939a13627a.16",
"latlng": "47.619548,-122.352086"
},
{
"title": "Pacific Science Center Fountains ",
"guid": "a060b71d640b47dc9d938ffb141987db.16",
"latlng": "47.619298,-122.351966"
},
{
"title": "Secrets of Sound Exhibit",
"guid": "22d382e704024e4aafc087fa23dcd859.16",
"latlng": "47.61876,-122.351453"
},
{
"title": "Concord Fountain",
"guid": "7ba05d4ffd6f40cdaaa5252df6a07864.16",
"latlng": "47.617557,-122.35327"
},
{
"title": "Elliott Bay View Water Sculpture",
"guid": "52b7dcce037b4265a8c6efb20a9a2e69.16",
"latlng": "47.619655,-122.354032"
},
{
"title": " First United Methodist Church of Seattle",
"guid": "5e1d6e0072c24fb9beb90e0da53d2719.11",
"latlng": "47.618675,-122.35325"
},
{
"title": "Axis Waterfall",
"guid": "f19caf4f1b4f44b48dd0e58188f621cc.11",
"latlng": "47.619266,-122.352936"
},
{
"title": "Pachycephalosaurus",
"guid": "55971aa0db97415fa1e3da42572c11ac.16",
"latlng": "47.618968,-122.352139"
},
{
"title": "The Human Waterwheel",
"guid": "5fafcb5fecc64141a1b73d853b533231.16",
"latlng": "47.619293,-122.351535"
},
{
"title": "Bandits Bar",
"guid": "1e77da181d8f4f2d96809c94ca5d093d.16",
"latlng": "47.618499,-122.353643"
},
{
"title": "Storm Drain Covering",
"guid": "8a639648bdc745d18d3100d069d7d44a.16",
"latlng": "47.61766,-122.350031"
},
{
"title": "Center View Apartments Mural",
"guid": "38bfe0b992fd4df3b51a8d74651056cc.16",
"latlng": "47.61851,-122.35428"
},
{
"title": "Fountain in a Grove of Trees",
"guid": "bf1212ea7f8d476d945029e5e9f30ce6.16",
"latlng": "47.617889,-122.350787"
},
{
"title": "Deinonychus Display",
"guid": "a6912c2e9fb54a25963925a342807f59.16",
"latlng": "47.619088,-122.350924"
},
{
"title": "Apatosaurus",
"guid": "070c568c6ee646358254a0a74fd895d8.16",
"latlng": "47.619287,-122.352259"
},
{
"title": "Triceratops Statue",
"guid": "513ce9d72137416e8046f876abb1c6f2.16",
"latlng": "47.619628,-122.351324"
},
{
"title": "Giant Praying Mantis Sculpture",
"guid": "2ab25e394aa0475aa1599db0a8fdcd02.16",
"latlng": "47.619052,-122.350466"
},
{
"title": "Bronze Caterpillar",
"guid": "9178cbb316a542f9b0f8576117367dd5.16",
"latlng": "47.618924,-122.351582"
},
{
"title": "Fisher Plaza Fountain",
"guid": "f972e3f7e48748c0ae384bd0d15939ad.16",
"latlng": "47.619375,-122.348717"
},
{
"title": "Chief Seattle",
"guid": "110456629b14489790a63e4fd6a16aad.12",
"latlng": "47.618343,-122.347444"
},
{
"title": "Concord Tree Crutches ",
"guid": "de64617008e1470887bebdd33a71e797.16",
"latlng": "47.617338,-122.353435"
},
{
"title": "Stegosaurus Friend Statue",
"guid": "bacc97ebf69f453c9fb8380aeb828a04.16",
"latlng": "47.619426,-122.351164"
},
{
"title": "Fat City Mural",
"guid": "21844b162ad04a7b90b9d5d3daed6728.16",
"latlng": "47.618758,-122.347461"
},
{
"title": "The 5 Point Cafe",
"guid": "8e8a8fa4a1814e7b903d6600f96955b6.11",
"latlng": "47.618096,-122.347495"
},
{
"title": "Olympic Iliad",
"guid": "9a8e2a5b9de34de789a5dbb6b63711c9.12",
"latlng": "47.619404,-122.350064"
},
{
"title": "Helix at the Pacific Science Center",
"guid": "9be677f6e6ba4f7aad1a6a0733f6bf02.16",
"latlng": "47.619239,-122.351266"
},
{
"title": "Davenport Crest.",
"guid": "196b8dd551f545a8bce743b495a9450c.16",
"latlng": "47.617714,-122.346854"
},
{
"title": "James Dewey Watson",
"guid": "d803828ce0644adf923be5299cd5e01f.16",
"latlng": "47.61875,-122.350853"
},
{
"title": "Whale Skeleton",
"guid": "3b97f2415bf54a5f8c9ef6958df2ef79.16",
"latlng": "47.619336,-122.350677"
},
{
"title": "Al Rochester's Podium",
"guid": "30f1f595a9144b1fb707cf09f3f6c0d5.16",
"latlng": "47.618426,-122.350848"
},
{
"title": "Ackerley Family Exhibit Gallery",
"guid": "38756bd1fd3e4fc1b9281e8a9694eeca.16",
"latlng": "47.618871,-122.350528"
},
{
"title": "Purple Haze",
"guid": "fc0a2d18b80340e390ff9e53190acfc6.16",
"latlng": "47.621443,-122.348656"
},
{
"title": "Two Friends, Two Hearts, One Love",
"guid": "665deb1735164a5d92c54ca97d1c8c4f.16",
"latlng": "47.621911,-122.352486"
},
{
"title": "Expo Sculpture",
"guid": "a9dbbb9d75c44f75823212961a6f617f.11",
"latlng": "47.623359,-122.354591"
},
{
"title": "The Dance",
"guid": "a39326b3daf74a84a38d619dd815e892.16",
"latlng": "47.62383,-122.350246"
},
{
"title": "Key Arena Carving",
"guid": "04a8044e3f6e41d68cefebdffa05bb92.16",
"latlng": "47.622747,-122.354456"
},
{
"title": "Crescent Moon Mural",
"guid": "13404dcfdfa74665b6275eb4ffb7152e.16",
"latlng": "47.62261,-122.348761"
},
{
"title": "Bigfood Bbq",
"guid": "931ece73379642c18d4505e5bf9ac566.16",
"latlng": "47.621807,-122.350687"
},
{
"title": "The Iron Throne",
"guid": "c90caa9cad654525a0f18c4ef3adbdf9.16",
"latlng": "47.621144,-122.348407"
},
{
"title": "Fountain of the Northwest",
"guid": "0540b76733204c33ba94d667a1292ec2.11",
"latlng": "47.624238,-122.3524"
},
{
"title": "Fisher Pavilion",
"guid": "e175cdf4f18e49d9a7aec4c42edc1128.16",
"latlng": "47.621083,-122.352647"
},
{
"title": "Key Arena",
"guid": "1d5a0923aebe42c4b932d33d2ec0213b.11",
"latlng": "47.622142,-122.353166"
},
{
"title": "Charlotte Martin Tile Mosaic",
"guid": "9739d8fa20834e3286f5650fa2903676.16",
"latlng": "47.620785,-122.352112"
},
{
"title": "Purple and Wood",
"guid": "1d2dcb9cf17b4fdfb977e424b6241d31.16",
"latlng": "47.620712,-122.349861"
},
{
"title": "PNB Obelisk",
"guid": "b12c37af9dbd4ed18c17c4d86bd5add9.16",
"latlng": "47.624209,-122.351898"
},
{
"title": "Cherry Trees Plaque",
"guid": "06d5c563f4414b0aad9a57b9ac9d3c8d.16",
"latlng": "47.621466,-122.352515"
},
{
"title": "Reel Grrls Seattle, WA ",
"guid": "8cf8c0e5a1e248b29e0b0c4fa2aa5d75.16",
"latlng": "47.623823,-122.347307"
},
{
"title": "Next 50 Pavilion ",
"guid": "eace8e37b37b49a9aaf072b3bfec4fcd.16",
"latlng": "47.621508,-122.35"
},
{
"title": "Conquistadors",
"guid": "d30f538b638149a6acd5ebb1befb3fde.16",
"latlng": "47.620879,-122.350419"
},
{
"title": "Pool Mural",
"guid": "23d938144c75441fa844b04ad18a37a8.16",
"latlng": "47.623075,-122.352917"
},
{
"title": "Path to Knowledge ",
"guid": "6c0472cce79a4c2898f2ff1a7add6793.16",
"latlng": "47.622716,-122.347374"
},
{
"title": "Seattle Center Armory",
"guid": "7c938c73c0ce48e788d649ce95a5fc19.16",
"latlng": "47.621971,-122.350868"
},
{
"title": "Science Rock",
"guid": "87b60dfae3c24f66ac3ed982dac42641.16",
"latlng": "47.619941,-122.352606"
},
{
"title": "Grass Blades",
"guid": "69cf2c8b5941423cb33c3b05bce2fbfc.16",
"latlng": "47.622142,-122.348606"
},
{
"title": "Studio at Intiman Plaque",
"guid": "f329490bce4c4a2689ca6e6d431a252f.16",
"latlng": "47.62362,-122.352571"
},
{
"title": "Can You Hear Me Now?",
"guid": "cba6e410c8474b789b31502327b21e65.16",
"latlng": "47.621811,-122.34952"
},
{
"title": "Space Needle",
"guid": "bc071ed59a874db886cfd0ec29eff736.12",
"latlng": "47.620508,-122.349272"
},
{
"title": "Istanbul 1996",
"guid": "fd4289c6b3234bcb811d5cac622ecbb5.16",
"latlng": "47.621589,-122.348429"
},
{
"title": "Theater Commons",
"guid": "c14671c27dea44d1844478b984920746.16",
"latlng": "47.624134,-122.353075"
},
{
"title": "August Wilson Way",
"guid": "58bc395cc94e45a199e3dcad3adf50a2.16",
"latlng": "47.623342,-122.353985"
},
{
"title": "Key Arena",
"guid": "00a534ef6d72423e88d74048c21b43e5.16",
"latlng": "47.62216,-122.354892"
},
{
"title": "The Giving Garden P-Patch",
"guid": "526ffd9515234e2db38fc3d4f49285fc.16",
"latlng": "47.625049,-122.350213"
},
{
"title": "Pig Fish",
"guid": "6e55ed41c7314bc5b6831789674f5332.16",
"latlng": "47.620023,-122.351977"
},
{
"title": "Glasscherven Glass Mural",
"guid": "4927ffb35227443ba6cfc85fa17e55bf.16",
"latlng": "47.622589,-122.353191"
},
{
"title": "Donnelly Gardens",
"guid": "773f5297557443b9854bf38c732c863c.16",
"latlng": "47.623508,-122.353222"
},
{
"title": "Amazing Maze",
"guid": "460d6165c3ff4deb861397cd9fd49f4e.16",
"latlng": "47.621772,-122.348939"
},
{
"title": "Seattle Children's Theatre Strange Face Sculptures",
"guid": "4e847a641b0e455da771fc34c8c2faa4.16",
"latlng": "47.620541,-122.351689"
},
{
"title": "An Equal and Opposite Reaction",
"guid": "d66750150d0d4783a7abb5e929ba065a.16",
"latlng": "47.624341,-122.350918"
},
{
"title": "Dreaming in Color",
"guid": "707e06fd24994465ae6dbec880ad46ff.11",
"latlng": "47.623681,-122.351073"
},
{
"title": "Leon H. Brigham Field",
"guid": "f183b736745f422bac186edf355399ee.11",
"latlng": "47.622793,-122.348751"
},
{
"title": "Moon Music Mural",
"guid": "5be70c7ed3e14bdb865ad66bc0cad5ec.16",
"latlng": "47.623028,-122.348758"
},
{
"title": "Steel Squid",
"guid": "2215fb2b89b74d309385ecee19958508.16",
"latlng": "47.622155,-122.348959"
},
{
"title": "Skate Park",
"guid": "9920ccae480a4a949563a1493851f045.16",
"latlng": "47.621295,-122.353143"
},
{
"title": "Chihuly Garden and Glass",
"guid": "ce2eec4d226c4813a9a382b4748c03e0.16",
"latlng": "47.620866,-122.349682"
},
{
"title": "The China Mural 1984",
"guid": "f74775c40072437884ecd05b177cbc90.16",
"latlng": "47.621868,-122.35031"
},
{
"title": "Kreiel Sheimer Plaque",
"guid": "ddb2adb3f6ad4e328ee2fff7219957ed.16",
"latlng": "47.623295,-122.351351"
},
{
"title": "Seattle Center Poetry Garden",
"guid": "80f6d9ecc5ad4ba6b3650fd2f6497b96.16",
"latlng": "47.621353,-122.351621"
},
{
"title": "Flower Power Hut",
"guid": "a0fed0e4fd2c43db806bc54e4a745fe9.16",
"latlng": "47.621833,-122.349833"
},
{
"title": "Middle East Peace",
"guid": "7ace1045333a4c719a982309196b1bae.11",
"latlng": "47.620024,-122.349914"
},
{
"title": "Human Forms in Balance",
"guid": "3f36b3d6ad80409e9257f095aa45407a.16",
"latlng": "47.6215,-122.350446"
},
{
"title": "Seattle Views On Glass",
"guid": "dc3c7bfe05224869a38f0d7c3dda5948.16",
"latlng": "47.622662,-122.352898"
},
{
"title": "SIFF Film Center",
"guid": "54bf37961a534684a5472c7d98029dfb.16",
"latlng": "47.622967,-122.353381"
},
{
"title": "Sculpture by Trimpin",
"guid": "98810220df5d4e189244c5a232407dde.16",
"latlng": "47.621466,-122.348158"
},
{
"title": "Mural By the Parking Garage",
"guid": "b88738d4290848cbb5f3a4c33583bc96.12",
"latlng": "47.620816,-122.354779"
},
{
"title": "Intiman Theater Stage Door",
"guid": "9b93f8d0994c400e8bf1e474492e9e72.16",
"latlng": "47.623806,-122.352715"
},
{
"title": "Animalistic",
"guid": "63c048fbdd80453c89fc7e64c6f3ef84.16",
"latlng": "47.625016,-122.349081"
},
{
"title": "Key Arena Sculpture",
"guid": "266ffbe24df648519b159396d4d1858d.16",
"latlng": "47.622792,-122.354765"
},
{
"title": "Moses",
"guid": "4d98ceb536cf41c7b3c2669c9f6403b6.11",
"latlng": "47.620799,-122.348859"
},
{
"title": "Pillar Farm",
"guid": "9645d0cf39c24e6c909ea8bb053dae13.16",
"latlng": "47.624857,-122.352477"
},
{
"title": "Fountain of Seseragi",
"guid": "50e8077fe2974ec08167cedfcf1999d8.12",
"latlng": "47.62335,-122.352467"
},
{
"title": "Stars and Waves Path",
"guid": "d3d1884649cc46c59c855c48b20a519b.16",
"latlng": "47.621122,-122.351365"
},
{
"title": "A Sunful of Jupiters",
"guid": "6b24da70f2f34ef8bab0011d2a151bcb.16",
"latlng": "47.619716,-122.350946"
},
{
"title": "International Fountain - Seattle Center",
"guid": "f0640406e774403893b5d6a4fe87772b.12",
"latlng": "47.622519,-122.351981"
},
{
"title": "Birdsong Listening Station",
"guid": "8e964ebc7ade43c3a930054b9e581d61.12",
"latlng": "47.620975,-122.351775"
},
{
"title": "Marion McCaw Solar Project",
"guid": "8c258e2deb90413ab3d7d03e0fbeb044.16",
"latlng": "47.623152,-122.350623"
},
{
"title": "Founder's Court Central Medallion",
"guid": "178cf7aa78fc4f178272c8509e59ed67.16",
"latlng": "47.623519,-122.351878"
},
{
"title": "Roy St. Garage",
"guid": "387e60bb01c545c0af053446da737a8e.16",
"latlng": "47.625323,-122.349108"
},
{
"title": "Tin Man Art",
"guid": "1039ab4ce1c94616846c392daaa797f5.16",
"latlng": "47.619738,-122.350456"
},
{
"title": "Howlin' Wolf 1966",
"guid": "997346f1f4524aecb584ee67b4243e11.16",
"latlng": "47.621731,-122.34824"
},
{
"title": "Waves of Change",
"guid": "f743ae4f0a284915b96f7ee5a425bc72.16",
"latlng": "47.624685,-122.349105"
},
{
"title": "Fountain of Creation",
"guid": "eb6cca506b664857b197161eb0083d85.16",
"latlng": "47.62285,-122.353608"
},
{
"title": "Space Needle Sidewalk Mural",
"guid": "203405e61b9f4b19b0200b2d3e1e6ea9.16",
"latlng": "47.620694,-122.349272"
},
{
"title": "Seattle Center Tree",
"guid": "b4c0b4910856441299dd79fd207419ff.16",
"latlng": "47.622843,-122.352021"
},
{
"title": "Giant Coke Bottle ",
"guid": "e712cd20f5d84489b637de5c9e737ed1.16",
"latlng": "47.622395,-122.354532"
},
{
"title": "Monorail Spider",
"guid": "305d3c019a3246d29b5fadae6019433a.16",
"latlng": "47.621329,-122.350124"
},
{
"title": "Sonic Bloom",
"guid": "00650b5e9df647d7aedd05e14a16f195.16",
"latlng": "47.619976,-122.350221"
},
{
"title": "Dingwall Courtyard",
"guid": "1414027adb4a4954a9d8e345070d8b2b.16",
"latlng": "47.624431,-122.352209"
},
{
"title": "Space Spots Light Gray Ferry",
"guid": "3b3d67a8cb534b4d8d66b284cdbe68df.16",
"latlng": "47.620588,-122.349584"
},
{
"title": "Skate Park Mural Thomas Street",
"guid": "e7021c55d6c049ddbeae0da04e3e5d9e.11",
"latlng": "47.620983,-122.353297"
},
{
"title": "Turtle Sculpture at the Pacific Science Center",
"guid": "8415a739180a467eba3d05623b22d864.16",
"latlng": "47.619846,-122.351367"
},
{
"title": "Rail Rider",
"guid": "cd3ffb2302dd46c4936acbb3ed2a4295.16",
"latlng": "47.621947,-122.349291"
},
{
"title": "Local Roots",
"guid": "84fa594a104748b5a4caba30ddf71d85.16",
"latlng": "47.623224,-122.34631"
},
{
"title": "Moon Gates",
"guid": "5570ee83fad340469cacc955fe13db14.11",
"latlng": "47.620099,-122.34887"
},
{
"title": "Monorail Man (aka Teainus Prime )",
"guid": "1ba9813d63054b078cd5a090d1b5079a.16",
"latlng": "47.621344,-122.349821"
},
{
"title": "Bronze “Feminine One“",
"guid": "48ab07b5f595439b9d1296a224fe1c4c.16",
"latlng": "47.621058,-122.349291"
},
{
"title": "Kobe Pagoda Bell",
"guid": "4ff94d737b6d4e6b91955d6c1ad4038c.11",
"latlng": "47.623472,-122.352255"
},
{
"title": "The Music Bench",
"guid": "2a78ccdd710148bfb0a4bb51104d0a75.16",
"latlng": "47.623487,-122.350971"
},
{
"title": "Migrare",
"guid": "38023e0508af45f4a66a385c88e0470d.16",
"latlng": "47.621662,-122.351397"
},
{
"title": "The Armory, Seattle Center",
"guid": "5fe31c7899b9443f8c21c6c3c82dd45f.11",
"latlng": "47.620853,-122.350918"
},
{
"title": "Poetry Stones",
"guid": "5d40517ca82c479c8b78ba2299c0cc98.16",
"latlng": "47.621557,-122.351723"
},
{
"title": "Outside Wall Seattle Children's Theatre",
"guid": "0f5840453f544293a53aca2a260c3456.16",
"latlng": "47.620445,-122.352692"
},
{
"title": "Pacific Northwest Ballet",
"guid": "e15c1dac0d8e4c5fbcbc5660ff9a32ad.11",
"latlng": "47.62437,-122.351519"
},
{
"title": "Cirque Bench",
"guid": "c9d748dcc50f451da6e3a66f72d27f8f.16",
"latlng": "47.621017,-122.353787"
},
{
"title": "Howard S. Wright Memorial Fountain",
"guid": "e2272c4b489c4c7a835955a60092d934.11",
"latlng": "47.620062,-122.34936"
},
{
"title": "Black Lightning",
"guid": "d0a302e311ce4d1c9ecf8877ec524c2e.11",
"latlng": "47.620454,-122.348365"
},
{
"title": "Queue VI",
"guid": "6c312a17085a4759a80f3b71bf49eea4.16",
"latlng": "47.621783,-122.351177"
},
{
"title": "Ball Pipe Organ",
"guid": "190702f30412466ebad3a73a250c0544.16",
"latlng": "47.622279,-122.349378"
},
{
"title": "Seattle Center Totem",
"guid": "a8d64c22e1ef4e708496170a7f976b53.11",
"latlng": "47.62082,-122.351286"
},
{
"title": "Laurie B Oki Scene Gallery ",
"guid": "7683380df64e4eb4906412e72c7c8033.16",
"latlng": "47.620115,-122.352355"
},
{
"title": "Neototems",
"guid": "bff7426137ea4e49bc2328dfd8053f5f.16",
"latlng": "47.622377,-122.352556"
},
{
"title": "George Washington's Tree",
"guid": "bba546580c0b461db99db7cc2e762477.16",
"latlng": "47.62322,-122.352204"
},
{
"title": "Blade Runner Police Car",
"guid": "ef7d31265ef84c5faba305da1e4ade9a.16",
"latlng": "47.621658,-122.347865"
},
{
"title": "Berlin Wall",
"guid": "822a10d229a14f93b798177decb25574.16",
"latlng": "47.621545,-122.35102"
},
{
"title": "Memorial Stadium",
"guid": "2c56e98c9b1644b797209ed27b7702d4.11",
"latlng": "47.623242,-122.348781"
},
{
"title": "A Whale of a Tale",
"guid": "4082e137c1ec4c83ba8966a5c31213e9.16",
"latlng": "47.620176,-122.351686"
},
{
"title": "Marion Oliver McCaw Hall Obelisk",
"guid": "e320ea892dc24ed3b40aeb5fadb9ed08.16",
"latlng": "47.623299,-122.350939"
},
{
"title": "Ground Fountain",
"guid": "c24033c3723e4bdbb5a5fb46e8405732.16",
"latlng": "47.624039,-122.351133"
},
{
"title": "Charlotte Martin Theatre",
"guid": "b13ff74f485e4208873254952c8ec3b4.16",
"latlng": "47.620692,-122.352705"
},
{
"title": "Kimsooja Installation",
"guid": "37bd19f5f14d41b5a9aae48212574e40.16",
"latlng": "47.624008,-122.347252"
},
{
"title": "Celebration",
"guid": "a992c7d160474030a0d812dd57ed2434.16",
"latlng": "47.621143,-122.350503"
},
{
"title": "The First Commercial Monorail ",
"guid": "25f5d4403749470cb3b452a6fe1e023d.12",
"latlng": "47.62103,-122.349888"
},
{
"title": "Pop Kitchen Bar",
"guid": "270cd6fe8e784cf996d2b003ebc7877e.16",
"latlng": "47.621918,-122.347836"
},
{
"title": "Monorail historic Landmark ",
"guid": "5d41071f927446768fbd116fe6c6a3eb.16",
"latlng": "47.620813,-122.350118"
},
{
"title": "Acrobat Constellation",
"guid": "ec5723c0c4754c58af8bd90be9d088d4.16",
"latlng": "47.622098,-122.352886"
},
{
"title": "Egon Weiner Sculpture",
"guid": "719c561c6eba4d70a98929eb9f8298cc.16",
"latlng": "47.623586,-122.351566"
},
{
"title": "EMP Building",
"guid": "8e5e2738f0414859ab9f0814202b0046.16",
"latlng": "47.62188,-122.348575"
},
{
"title": "Seattle Center 5th Ave Parking",
"guid": "e51f3576fb474038b6488becfadd71ff.11",
"latlng": "47.622329,-122.347314"
},
{
"title": "Pathway To Life",
"guid": "aafaa461a1454c538e7bd4fe394bd0a3.16",
"latlng": "47.622948,-122.347368"
},
{
"title": "Space Needle Spherical Tree",
"guid": "7d25a5d2d08e4a9087f89a283850f3d8.16",
"latlng": "47.620287,-122.34919"
},
{
"title": "Focus",
"guid": "2996751111034a4597c9ad4954abc20a.16",
"latlng": "47.621179,-122.353559"
},
{
"title": "Seattle Center Mercer Ave Garage Sculpted Relief",
"guid": "6a47b50016bb4684a4158a21885f12a7.16",
"latlng": "47.624686,-122.350675"
},
{
"title": "Brass Snail",
"guid": "f35f9b3489fd405f9c67d00affa81738.16",
"latlng": "47.620506,-122.351172"
},
{
"title": "Seattle Children's Museum",
"guid": "2f90b20d49b64b578a71dadce4f800ac.12",
"latlng": "47.62114,-122.350895"
},
{
"title": "Neon Blue Heron",
"guid": "a7b46cbac6db477799c9820f7282eaa4.16",
"latlng": "47.623667,-122.353935"
},
{
"title": "Seattle Center 30th Birthday Plaque",
"guid": "195692fcfcab4c6e8126f3a959e5d8bc.16",
"latlng": "47.623721,-122.351867"
},
{
"title": "Pacific Science Center Arches",
"guid": "1fb20fcc3cdc4b06b9b5f23b5fd08b57.12",
"latlng": "47.620004,-122.35152"
},
{
"title": "Nutcracker Mural",
"guid": "c1e6ff2e294042ff9b6543993d04e8cd.16",
"latlng": "47.624063,-122.351509"
},
{
"title": "UpGarden Car Planter",
"guid": "ba2adc96d35c4f68836e46be5e123ced.16",
"latlng": "47.624991,-122.349365"
},
{
"title": "Sacred Heart Catholic Church",
"guid": "b120026b5431424da3aa99f3e2f6fe4d.16",
"latlng": "47.620775,-122.353164"
},
{
"title": "Sea Floor in Glass",
"guid": "3a595da962664805910abb6e7b3fd5bf.16",
"latlng": "47.620557,-122.350029"
},
{
"title": "Bill and Melinda Gates Foundation",
"guid": "ac9e1a3d7fb54426bc138fddbf9dacd5.16",
"latlng": "47.623444,-122.347153"
},
{
"title": "Seattle Triceratops",
"guid": "6b6bce0825644aef9b8c4e1f34561fbe.16",
"latlng": "47.619815,-122.351709"
},
{
"title": "Encircled Stream",
"guid": "62a938783e384ab198db80b16c973489.16",
"latlng": "47.623902,-122.352002"
},
{
"title": "Ride the Ducks",
"guid": "f3356b8848d145098d9565838eda5d6e.16",
"latlng": "47.621413,-122.347154"
},
{
"title": "Glowing Pods",
"guid": "198835e2e1474a0990cb2daa6608b4b4.16",
"latlng": "47.620325,-122.349769"
},
{
"title": "Kreielsheimer Promenade",
"guid": "385676b90b2f40cab7b52aba64d9e6b6.16",
"latlng": "47.623781,-122.351442"
},
{
"title": "Fountain of Creation Plaque",
"guid": "01811432e42a4fd1a3529956e72b23d2.16",
"latlng": "47.622862,-122.353882"
},
{
"title": "May Peace Prevail on Earth",
"guid": "5095fd041951433393421bbec7014ec6.11",
"latlng": "47.620051,-122.349733"
},
{
"title": "Twin Upright Columns",
"guid": "79499e736aed48b195267b3b5a5463d8.16",
"latlng": "47.621137,-122.347838"
},
{
"title": "Japan/USA Friendship Plaque",
"guid": "b99aa35eb0704120833764115dfcb2ca.16",
"latlng": "47.621692,-122.352603"
},
{
"title": "Northwest Future Forests Grove",
"guid": "a2c6992685e141449939b798a2ddc496.16",
"latlng": "47.622866,-122.35314"
},
{
"title": "Mural Amphitheatre - Seattle Center",
"guid": "06a1196b206f415cb75bf90ef83c745b.12",
"latlng": "47.620431,-122.350691"
},
{
"title": "Armory Clock",
"guid": "45558da1a78749a1a490787f667ff536.16",
"latlng": "47.621145,-122.350201"
},
{
"title": "PBS Station KCTS",
"guid": "d6fe9c5528ce49e096f98b468b42ac3f.16",
"latlng": "47.62419,-122.348631"
},
{
"title": "Circle of Love",
"guid": "17e57ec646ad420dafb60619038bdc07.16",
"latlng": "47.621947,-122.351809"
},
{
"title": "John T. Williams Memorial Totem Pole",
"guid": "04ff6d467294403388ab0fb5a6b7f2a3.11",
"latlng": "47.620639,-122.348151"
},
{
"title": "Sacred Heart Bell",
"guid": "88af6d404d2b44f28bb200462518d60b.16",
"latlng": "47.620552,-122.352942"
},
{
"title": "Seattle Repertory Theatre",
"guid": "e1cc5d1410fe4bbd81545a06419a970b.11",
"latlng": "47.624361,-122.353285"
},
{
"title": "The Atoms",
"guid": "6cc89c8fb7164b0f82a65e811882e03f.16",
"latlng": "47.622819,-122.354184"
},
{
"title": "Must I Paint you a Picture?",
"guid": "54705fde35db48ad8d5e5e9e03b7bd9f.16",
"latlng": "47.62146,-122.349538"
},
{
"title": "Flying Cards",
"guid": "eaf0139f4b674c0788e9fc5371a0d4bd.16",
"latlng": "47.621705,-122.354554"
},
{
"title": "SC Legion Of Honor Memorial",
"guid": "d66ea12ed8434c07acf0cbbc024c15c0.16",
"latlng": "47.621122,-122.351976"
},
{
"title": "McCaw Hall Triptych",
"guid": "d0d0dd2beb8f427ea694ab9d7ecd6a31.16",
"latlng": "47.624418,-122.35038"
},
{
"title": "Seattle Storm Team Shop",
"guid": "c8fb903b6ea34294b750e44a5451c7a0.11",
"latlng": "47.621645,-122.355265"
},
{
"title": "US Post Office - Queen Anne Station",
"guid": "f6eb6405f4404943ac638df7590cc061.12",
"latlng": "47.622851,-122.355554"
},
{
"title": "Dancing Pig and Cow",
"guid": "5a113672077a48718d39caf1c5fb5a03.16",
"latlng": "47.623971,-122.355542"
},
{
"title": "Pottery Northwest",
"guid": "1f6f60312cb1488393e31b9bbccb46df.16",
"latlng": "47.62061,-122.35533"
},
{
"title": "Century 21 Expo Plaque",
"guid": "53403e8d5c6446c78a60b8a4ed2ca9be.16",
"latlng": "47.622504,-122.355126"
}]
